{
  "tag":["outside","bar","nikkor","vowel","decoration","pier","historic","countryside","fence","macromondays","market","mono",
         "truck","camera","sport","colours","interior","kodak","windows","farm","owl","shop","xmas","colour","cold","path",
         "christmastree","cielo","coth5","ice","eos","harbour","child","dawn","bench","day","seascape","spain","pet","feet"],
  "photos": [
    {
      "date": "2020-10-09 08:23:51",
      "id": "50447167026",
      "lat": "39.293075",
      "lon": "-121.196472",
      "name": "buffdawgus",
      "title": "A Nice Quiet Spot",
      "url": "https://live.staticflickr.com/65535/50447167026_a35f1c588d_c.jpg"
    },
    {
      "date": "2020-10-11 13:28:18",
      "id": "50451517713",
      "lat": "47.554593",
      "lon": "10.011805",
      "name": "RoamingTogether",
      "title": "Coming In",
      "url": "https://live.staticflickr.com/65535/50451517713_2eeb257fc1_c.jpg"
    },
    {
      "date": "2020-10-11 13:34:07",
      "id": "50451525728",
      "lat": "47.554488",
      "lon": "10.01183",
      "name": "RoamingTogether",
      "title": "THAT friend",
      "url": "https://live.staticflickr.com/65535/50451525728_00e507b565_c.jpg"
    },
    {
      "date": "2017-09-06 11:17:44",
      "id": "50451525903",
      "lat": "51.471441",
      "lon": "-0.45287",
      "name": "Plzen242",
      "title": "vw1187-2017-09-06-mt",
      "url": "https://live.staticflickr.com/65535/50451525903_c9fd08f358_c.jpg"
    },
    {
      "date": "2020-10-11 13:29:56",
      "id": "50452227246",
      "lat": "47.554526",
      "lon": "10.01178",
      "name": "RoamingTogether",
      "title": "The Stink Eye",
      "url": "https://live.staticflickr.com/65535/50452227246_98f5ff82fc_c.jpg"
    },
    {
      "date": "2020-10-11 13:24:58",
      "id": "50452385007",
      "lat": "47.554481",
      "lon": "10.011755",
      "name": "RoamingTogether",
      "title": "Field With a View",
      "url": "https://live.staticflickr.com/65535/50452385007_48126cc322_c.jpg"
    },
    {
      "date": "2020-10-11 13:34:59",
      "id": "50452402292",
      "lat": "47.554575",
      "lon": "10.011918",
      "name": "RoamingTogether",
      "title": "Captive Audience",
      "url": "https://live.staticflickr.com/65535/50452402292_c889673da2_c.jpg"
    },
    {
      "date": "2020-10-11 12:41:37",
      "id": "50452404007",
      "lat": "45.634986",
      "lon": "-73.442928",
      "name": "pegase1972",
      "title": "Fall leaves",
      "url": "https://live.staticflickr.com/65535/50452404007_3b78657bba_c.jpg"
    },
    {
      "date": "2020-09-05 15:01:50",
      "id": "50452407652",
      "lat": "46.333504",
      "lon": "6.37999",
      "name": "Paul MOINE",
      "title": "Vautour charognard (Necrosyrtes monachus)",
      "url": "https://live.staticflickr.com/65535/50452407652_3f827740e2_c.jpg"
    },
    {
      "date": "2020-01-25 10:25:08",
      "id": "50452411077",
      "lat": "13.789205",
      "lon": "100.538772",
      "name": "Thomas Mulchi",
      "title": "Bangkok \u2013 Denisa",
      "url": "https://live.staticflickr.com/65535/50452411077_893d289a0c_c.jpg"
    },
    {
      "date": "2020-10-12 09:07:57",
      "id": "50469662263",
      "lat": "49.985924",
      "lon": "6.71742",
      "name": "Adraf",
      "title": "022 C-295M | ETAD | 12.10.2020",
      "url": "https://live.staticflickr.com/65535/50469662263_f1b4ee6fdd_c.jpg"
    },
    {
      "date": "2020-10-12 10:49:10",
      "id": "50469669943",
      "lat": "49.985924",
      "lon": "6.71742",
      "name": "Adraf",
      "title": "4069 F-16C Fighting Falcon | ETAD | 12.10.2020",
      "url": "https://live.staticflickr.com/65535/50469669943_cfd200273c_c.jpg"
    },
    {
      "date": "2020-10-07 08:10:34",
      "id": "50469679523",
      "lat": "26.310602",
      "lon": "-80.196375",
      "name": "Jay Paredes",
      "title": "Yellow-throated Vireo",
      "url": "https://live.staticflickr.com/65535/50469679523_d9d83d7786_c.jpg"
    },
    {
      "date": "2020-10-12 21:49:48",
      "id": "50469724268",
      "lat": "44.222314",
      "lon": "12.039889",
      "name": "Roberto C., Italy",
      "title": "1-R0003267-1",
      "url": "https://live.staticflickr.com/65535/50469724268_ff2cbf7a0c_c.jpg"
    },
    {
      "date": "2020-10-12 13:40:34",
      "id": "50470331106",
      "lat": "49.639496",
      "lon": "6.235159",
      "name": "Adraf",
      "title": "484 ERJ-135 | ELLX | 12.10.2020",
      "url": "https://live.staticflickr.com/65535/50470331106_1baf3df856_c.jpg"
    },
    {
      "date": "2020-10-12 13:27:24",
      "id": "50470338296",
      "lat": "49.638829",
      "lon": "6.236114",
      "name": "Adraf",
      "title": "86/F-RAFB Falcon 7X | ELLX | 12.10.2020",
      "url": "https://live.staticflickr.com/65535/50470338296_1514e0e4d7_c.jpg"
    },
    {
      "date": "2020-10-12 09:23:27",
      "id": "50470352511",
      "lat": "49.985924",
      "lon": "6.71742",
      "name": "Adraf",
      "title": "018 C-295M | ETAD | 12.10.2020",
      "url": "https://live.staticflickr.com/65535/50470352511_db7345bd50_c.jpg"
    },
    {
      "date": "2020-10-12 15:45:26",
      "id": "50470358721",
      "lat": "49.639496",
      "lon": "6.235159",
      "name": "Adraf",
      "title": "606 Falcon 7X | ETAD | 12.10.2020",
      "url": "https://live.staticflickr.com/65535/50470358721_572dd2456d_c.jpg"
    },
    {
      "date": "2020-10-12 10:48:23",
      "id": "50470371566",
      "lat": "49.985924",
      "lon": "6.71742",
      "name": "Adraf",
      "title": "4069 F-16C Fighting Falcon | ETAD | 12.10.2020",
      "url": "https://live.staticflickr.com/65535/50470371566_f528d94c07_c.jpg"
    },
    {
      "date": "2020-10-07 09:26:29",
      "id": "50470393176",
      "lat": "14.08588",
      "lon": "-87.166314",
      "name": "IAEA Imagebank",
      "title": "COVID-19 Equipment to Honduras (05890226)",
      "url": "https://live.staticflickr.com/65535/50470393176_0e6de2dcb0_c.jpg"
    },
    {
      "date": "2020-10-07 09:24:48",
      "id": "50470393231",
      "lat": "14.085988",
      "lon": "-87.166437",
      "name": "IAEA Imagebank",
      "title": "COVID-19 Equipment to Honduras (05890225)",
      "url": "https://live.staticflickr.com/65535/50470393231_886b00fb42_c.jpg"
    },
    {
      "date": "2020-09-29 10:45:01",
      "id": "50470395016",
      "lat": "44.373405",
      "lon": "-68.253259",
      "name": "Thomas Kloc",
      "title": "Misty Lake",
      "url": "https://live.staticflickr.com/65535/50470395016_59bba0a8e5_c.jpg"
    },
    {
      "date": "2020-10-12 10:17:25",
      "id": "50470504452",
      "lat": "49.989201",
      "lon": "6.71698",
      "name": "Adraf",
      "title": "022 C-295M | ETAD | 12.10.2020",
      "url": "https://live.staticflickr.com/65535/50470504452_e086abec04_c.jpg"
    },
    {
      "date": "2020-10-12 10:04:47",
      "id": "50470508567",
      "lat": "49.989201",
      "lon": "6.71698",
      "name": "Adraf",
      "title": "018 C-295M | ETAD | 12.10.2020",
      "url": "https://live.staticflickr.com/65535/50470508567_045638dbb6_c.jpg"
    },
    {
      "date": "2020-10-12 10:50:08",
      "id": "50470523822",
      "lat": "49.985924",
      "lon": "6.71742",
      "name": "Adraf",
      "title": "4069 F-16C Fighting Falcon | ETAD | 12.10.2020",
      "url": "https://live.staticflickr.com/65535/50470523822_252458b43c_c.jpg"
    },
    {
      "date": "2020-10-07 09:24:45",
      "id": "50470551982",
      "lat": "14.085941",
      "lon": "-87.166406",
      "name": "IAEA Imagebank",
      "title": "COVID-19 Equipment to Honduras (05890224)",
      "url": "https://live.staticflickr.com/65535/50470551982_7eb10b463f_c.jpg"
    },
    {
      "date": "2020-10-11 18:45:08",
      "id": "50470553222",
      "lat": "43.925551",
      "lon": "10.196225",
      "name": "Mario Bertocchi",
      "title": "Ole'",
      "url": "https://live.staticflickr.com/65535/50470553222_685ff80fac_c.jpg"
    },
    {
      "date": "2020-10-13 09:24:41",
      "id": "50470569622",
      "lat": "51.645001",
      "lon": "-0.500693",
      "name": "IanAWood",
      "title": "PBWA Chorleywood - COVID19 diary",
      "url": "https://live.staticflickr.com/65535/50470569622_9d4ac171c4_c.jpg"
    },
    {
      "date": "2020-10-15 10:14:33",
      "id": "50490645438",
      "lat": "49.057473",
      "lon": "-122.884268",
      "name": "Anthony Tomlin",
      "title": "Do they have a daughter?",
      "url": "https://live.staticflickr.com/65535/50490645438_b9b1bb397f_c.jpg"
    },
    {
      "date": "2020-10-15 18:04:44",
      "id": "50490645973",
      "lat": "54.713533",
      "lon": "-7.391034",
      "name": "ppg_pelgis",
      "title": "DJI_0546e",
      "url": "https://live.staticflickr.com/65535/50490645973_fc6c16e5ce_c.jpg"
    },
    {
      "date": "2020-10-15 18:02:46",
      "id": "50490646078",
      "lat": "54.713519",
      "lon": "-7.393309",
      "name": "ppg_pelgis",
      "title": "DJI_0543e",
      "url": "https://live.staticflickr.com/65535/50490646078_cfcc860ca6_c.jpg"
    },
    {
      "date": "2020-10-15 18:01:24",
      "id": "50490646418",
      "lat": "54.712866",
      "lon": "-7.393967",
      "name": "ppg_pelgis",
      "title": "DJI_0540e",
      "url": "https://live.staticflickr.com/65535/50490646418_41158df4db_c.jpg"
    },
    {
      "date": "2020-10-15 18:01:02",
      "id": "50490646913",
      "lat": "54.713169",
      "lon": "-7.394478",
      "name": "ppg_pelgis",
      "title": "DJI_0539e",
      "url": "https://live.staticflickr.com/65535/50490646913_8aea17829c_c.jpg"
    },
    {
      "date": "2020-10-10 07:23:57",
      "id": "50490647348",
      "lat": "26.895061",
      "lon": "-80.057267",
      "name": "Symbiosis",
      "title": "Juno Beach Pier",
      "url": "https://live.staticflickr.com/65535/50490647348_f430773a8e_c.jpg"
    },
    {
      "date": "2020-10-15 17:59:13",
      "id": "50490647608",
      "lat": "54.713366",
      "lon": "-7.39237",
      "name": "ppg_pelgis",
      "title": "DJI_0535e",
      "url": "https://live.staticflickr.com/65535/50490647608_1868e4b00f_c.jpg"
    },
    {
      "date": "2020-10-15 17:58:51",
      "id": "50490648108",
      "lat": "54.713088",
      "lon": "-7.392592",
      "name": "ppg_pelgis",
      "title": "DJI_0534e",
      "url": "https://live.staticflickr.com/65535/50490648108_95704a7881_c.jpg"
    },
    {
      "date": "2020-10-10 07:30:39",
      "id": "50490650063",
      "lat": "26.894666",
      "lon": "-80.0569",
      "name": "Symbiosis",
      "title": "Juno Beach Pier",
      "url": "https://live.staticflickr.com/65535/50490650063_1a96033e24_c.jpg"
    },
    {
      "date": "2020-10-10 07:29:35",
      "id": "50490655148",
      "lat": "26.894672",
      "lon": "-80.056848",
      "name": "Symbiosis",
      "title": "Juno Beach Pier",
      "url": "https://live.staticflickr.com/65535/50490655148_360f15741c_c.jpg"
    },
    {
      "date": "2020-10-10 07:29:04",
      "id": "50490656828",
      "lat": "26.894675",
      "lon": "-80.056848",
      "name": "Symbiosis",
      "title": "Juno Beach Pier",
      "url": "https://live.staticflickr.com/65535/50490656828_297acdfc08_c.jpg"
    },
    {
      "date": "2020-10-10 07:28:38",
      "id": "50490659153",
      "lat": "26.89468",
      "lon": "-80.056848",
      "name": "Symbiosis",
      "title": "Juno Beach Pier",
      "url": "https://live.staticflickr.com/65535/50490659153_f8b303cde1_c.jpg"
    },
    {
      "date": "2020-10-10 07:16:12",
      "id": "50490659893",
      "lat": "26.892788",
      "lon": "-80.057984",
      "name": "Symbiosis",
      "title": "Juno Beach Pier",
      "url": "https://live.staticflickr.com/65535/50490659893_b3f324e8fe_c.jpg"
    },
    {
      "date": "2020-10-10 07:13:39",
      "id": "50490661673",
      "lat": "26.894861",
      "lon": "-80.05797",
      "name": "Symbiosis",
      "title": "Juno Beach Pier",
      "url": "https://live.staticflickr.com/65535/50490661673_c059e3456b_c.jpg"
    },
    {
      "date": "2020-10-14 16:50:20",
      "id": "50490664728",
      "lat": "-33.533906",
      "lon": "151.312138",
      "name": "Merrillie",
      "title": "Afternoons at the beach",
      "url": "https://live.staticflickr.com/65535/50490664728_c5ee00d659_c.jpg"
    },
    {
      "date": "2020-10-12 12:13:43",
      "id": "50490665228",
      "lat": "35.057739",
      "lon": "-89.976482",
      "name": "M.J. Scanlon",
      "title": "N316FR Frontier Airlines | Airbus A320-251N | Memphis International Airport",
      "url": "https://live.staticflickr.com/65535/50490665228_62ba7f589e_c.jpg"
    },
    {
      "date": "2020-10-10 07:12:40",
      "id": "50490665518",
      "lat": "26.894997",
      "lon": "-80.05832",
      "name": "Symbiosis",
      "title": "Juno Beach Pier",
      "url": "https://live.staticflickr.com/65535/50490665518_ff16e3a133_c.jpg"
    },
    {
      "date": "2020-10-15 18:06:49",
      "id": "50491348666",
      "lat": "54.713422",
      "lon": "-7.393295",
      "name": "ppg_pelgis",
      "title": "DJI_0551e",
      "url": "https://live.staticflickr.com/65535/50491348666_1a3a113836_c.jpg"
    },
    {
      "date": "2020-10-10 07:11:12",
      "id": "50491349131",
      "lat": "26.894377",
      "lon": "-80.057298",
      "name": "Symbiosis",
      "title": "Juno Beach Pier",
      "url": "https://live.staticflickr.com/65535/50491349131_778fe00d75_c.jpg"
    },
    {
      "date": "2020-10-10 07:22:35",
      "id": "50491351886",
      "lat": "26.894294",
      "lon": "-80.057137",
      "name": "Symbiosis",
      "title": "Juno Beach Pier",
      "url": "https://live.staticflickr.com/65535/50491351886_52308fb066_c.jpg"
    },
    {
      "date": "2020-10-10 07:11:51",
      "id": "50491356476",
      "lat": "26.894816",
      "lon": "-80.058037",
      "name": "Symbiosis",
      "title": "Juno Beach Pier",
      "url": "https://live.staticflickr.com/65535/50491356476_6911a43e3e_c.jpg"
    },
    {
      "date": "2020-10-05 09:47:24",
      "id": "50491356901",
      "lat": "59.290589",
      "lon": "18.897986",
      "name": "Pascal_t_ih",
      "title": "Sandhamn.",
      "url": "https://live.staticflickr.com/65535/50491356901_53c8f9ec78_c.jpg"
    },
    {
      "date": "2020-10-10 07:18:44",
      "id": "50491359251",
      "lat": "26.893197",
      "lon": "-80.056481",
      "name": "Symbiosis",
      "title": "Juno Beach Pier",
      "url": "https://live.staticflickr.com/65535/50491359251_7e684db689_c.jpg"
    },
    {
      "date": "2020-10-15 16:15:46",
      "id": "50491359451",
      "lat": "50.735673",
      "lon": "4.462852",
      "name": "cedricmuscat",
      "title": "Autumn 2020.",
      "url": "https://live.staticflickr.com/65535/50491359451_e4cd5e9b53_c.jpg"
    },
    {
      "date": "2020-10-10 07:28:06",
      "id": "50491363361",
      "lat": "26.894688",
      "lon": "-80.056809",
      "name": "Symbiosis",
      "title": "Juno Beach Pier",
      "url": "https://live.staticflickr.com/65535/50491363361_04bcf2b49a_c.jpg"
    },
    {
      "date": "2020-10-10 07:11:51",
      "id": "50491368961",
      "lat": "26.894816",
      "lon": "-80.058037",
      "name": "Symbiosis",
      "title": "Juno Beach Pier",
      "url": "https://live.staticflickr.com/65535/50491368961_ff695aa518_c.jpg"
    },
    {
      "date": "2020-10-15 14:52:20",
      "id": "50491371361",
      "lat": "53.487815",
      "lon": "-2.242519",
      "name": "Mike McNiven",
      "title": "Northern 150001",
      "url": "https://live.staticflickr.com/65535/50491371361_84bf316257_c.jpg"
    },
    {
      "date": "2020-10-10 07:24:46",
      "id": "50491371531",
      "lat": "26.89498",
      "lon": "-80.057167",
      "name": "Symbiosis",
      "title": "Juno Beach Pier",
      "url": "https://live.staticflickr.com/65535/50491371531_ea44d38a40_c.jpg"
    },
    {
      "date": "2020-10-10 10:13:52",
      "id": "50491389391",
      "lat": "53.394641",
      "lon": "5.879452",
      "name": "beeldmark",
      "title": "rainboat",
      "url": "https://live.staticflickr.com/65535/50491389391_d6129d9bce_c.jpg"
    },
    {
      "date": "2020-10-15 18:06:17",
      "id": "50491500777",
      "lat": "54.713327",
      "lon": "-7.393153",
      "name": "ppg_pelgis",
      "title": "DJI_0550e",
      "url": "https://live.staticflickr.com/65535/50491500777_e9a4625ff7_c.jpg"
    },
    {
      "date": "2020-10-15 18:02:17",
      "id": "50491501157",
      "lat": "54.713094",
      "lon": "-7.393145",
      "name": "ppg_pelgis",
      "title": "DJI_0542e",
      "url": "https://live.staticflickr.com/65535/50491501157_0938f1b318_c.jpg"
    },
    {
      "date": "2020-10-15 18:01:57",
      "id": "50491501282",
      "lat": "54.712761",
      "lon": "-7.393053",
      "name": "ppg_pelgis",
      "title": "DJI_0541e",
      "url": "https://live.staticflickr.com/65535/50491501282_4a3262b20d_c.jpg"
    },
    {
      "date": "2020-10-15 17:59:46",
      "id": "50491502377",
      "lat": "54.712891",
      "lon": "-7.393287",
      "name": "ppg_pelgis",
      "title": "DJI_0536e",
      "url": "https://live.staticflickr.com/65535/50491502377_42470dd76e_c.jpg"
    },
    {
      "date": "2020-10-15 17:57:54",
      "id": "50491503722",
      "lat": "54.714197",
      "lon": "-7.392759",
      "name": "ppg_pelgis",
      "title": "DJI_0533e",
      "url": "https://live.staticflickr.com/65535/50491503722_8075f7a36c_c.jpg"
    },
    {
      "date": "2020-10-10 07:20:55",
      "id": "50491504507",
      "lat": "26.893286",
      "lon": "-80.056289",
      "name": "Symbiosis",
      "title": "Juno Beach Pier",
      "url": "https://live.staticflickr.com/65535/50491504507_e75c0a0cb9_c.jpg"
    },
    {
      "date": "2020-10-11 06:21:45",
      "id": "50491506497",
      "lat": "-33.528039",
      "lon": "151.315363",
      "name": "Merrillie",
      "title": "Sunrise over Surf Life Saving Club and the Beach",
      "url": "https://live.staticflickr.com/65535/50491506497_7e1bb86911_c.jpg"
    },
    {
      "date": "2020-10-10 07:30:08",
      "id": "50491506962",
      "lat": "26.894675",
      "lon": "-80.056848",
      "name": "Symbiosis",
      "title": "Juno Beach Pier",
      "url": "https://live.staticflickr.com/65535/50491506962_b1c5251552_c.jpg"
    },
    {
      "date": "2020-10-10 07:19:55",
      "id": "50491508932",
      "lat": "26.893186",
      "lon": "-80.056381",
      "name": "Symbiosis",
      "title": "Juno Beach Pier",
      "url": "https://live.staticflickr.com/65535/50491508932_cc9c290843_c.jpg"
    },
    {
      "date": "2020-10-10 07:18:04",
      "id": "50491512347",
      "lat": "26.893194",
      "lon": "-80.056481",
      "name": "Symbiosis",
      "title": "Juno Beach Pier",
      "url": "https://live.staticflickr.com/65535/50491512347_131ca55b40_c.jpg"
    },
    {
      "date": "2020-10-12 18:22:10",
      "id": "50491514577",
      "lat": "43.92581",
      "lon": "10.196557",
      "name": "Darea62",
      "title": "Pontile di Marina di Pietrasanta sotto le nuvole al tramonto",
      "url": "https://live.staticflickr.com/65535/50491514577_f682796984_c.jpg"
    },
    {
      "date": "2020-10-10 07:27:15",
      "id": "50491518317",
      "lat": "26.894683",
      "lon": "-80.056809",
      "name": "Symbiosis",
      "title": "Juno Beach Pier",
      "url": "https://live.staticflickr.com/65535/50491518317_601857cf34_c.jpg"
    },
    {
      "date": "2020-10-10 07:25:41",
      "id": "50491519472",
      "lat": "26.894633",
      "lon": "-80.057648",
      "name": "Symbiosis",
      "title": "Juno Beach Pier",
      "url": "https://live.staticflickr.com/65535/50491519472_5d564c994d_c.jpg"
    },
    {
      "date": "2020-10-10 07:23:31",
      "id": "50491524707",
      "lat": "26.895066",
      "lon": "-80.057267",
      "name": "Symbiosis",
      "title": "Juno Beach Pier",
      "url": "https://live.staticflickr.com/65535/50491524707_385066da42_c.jpg"
    },
    {
      "date": "2020-09-19 17:25:23",
      "id": "50491531652",
      "lat": "51.476144",
      "lon": "-0.449345",
      "name": "Jim Bavin (Thanks for 5 MILLION Views)",
      "title": "B-7368 Boeing 777-39PER  China Eastern Airways",
      "url": "https://live.staticflickr.com/65535/50491531652_e41334c1bb_c.jpg"
    },
    {}
  ]
}
